{
  "version": "v1",
  "countries": [
    {
      "iso2": "AF",
      "name": "Afghanistan",
      "capital": "Kabul",
      "continent": "Asia",
      "lat": 34.5553,
      "lng": 69.2075,
      "flag": "af",
      "status": "active",
      "isInsular": false,
      "isLandlocked": true,
      "subregion": "South Asia",
      "populationTier": "large",
      "areaTier": "medium",
      "flagComplexity": "moderate"
    },
    {
      "iso2": "AL",
      "name": "Albania",
      "capital": "Tirana",
      "continent": "Europe",
      "lat": 41.3275,
      "lng": 19.8187,
      "flag": "al",
      "status": "active",
      "isInsular": false,
      "isLandlocked": false,
      "subregion": "Southern Europe",
      "populationTier": "small",
      "areaTier": "small",
      "flagComplexity": "simple"
    },
    {
      "iso2": "DZ",
      "name": "Algeria",
      "capital": "Algiers",
      "continent": "Africa",
      "lat": 36.7538,
      "lng": 3.0588,
      "flag": "dz",
      "status": "active",
      "isInsular": false,
      "isLandlocked": false,
      "subregion": "Northern Africa",
      "populationTier": "large",
      "areaTier": "large",
      "flagComplexity": "moderate"
    },
    {
      "iso2": "AD",
      "name": "Andorra",
      "capital": "Andorra la Vella",
      "continent": "Europe",
      "lat": 42.5063,
      "lng": 1.5218,
      "flag": "ad",
      "status": "active",
      "isInsular": false,
      "isLandlocked": true,
      "subregion": "Southern Europe",
      "populationTier": "micro",
      "areaTier": "micro",
      "flagComplexity": "moderate"
    },
    {
      "iso2": "AO",
      "name": "Angola",
      "capital": "Luanda",
      "continent": "Africa",
      "lat": -8.839,
      "lng": 13.2894,
      "flag": "ao",
      "status": "active",
      "isInsular": false,
      "isLandlocked": false,
      "subregion": "Central Africa",
      "populationTier": "medium",
      "areaTier": "large",
      "flagComplexity": "moderate"
    },
    {
      "iso2": "AG",
      "name": "Antigua and Barbuda",
      "capital": "Saint John's",
      "continent": "North America",
      "lat": 17.1175,
      "lng": -61.8456,
      "flag": "ag",
      "status": "active",
      "isInsular": true,
      "isLandlocked": false,
      "subregion": "Caribbean",
      "populationTier": "micro",
      "areaTier": "micro",
      "flagComplexity": "moderate"
    },
    {
      "iso2": "AR",
      "name": "Argentina",
      "capital": "Buenos Aires",
      "continent": "South America",
      "lat": -34.6037,
      "lng": -58.3816,
      "flag": "ar",
      "status": "active",
      "isInsular": false,
      "isLandlocked": false,
      "subregion": "South America",
      "populationTier": "large",
      "areaTier": "large",
      "flagComplexity": "moderate"
    },
    {
      "iso2": "AM",
      "name": "Armenia",
      "capital": "Yerevan",
      "continent": "Asia",
      "lat": 40.1792,
      "lng": 44.4991,
      "flag": "am",
      "status": "active",
      "isInsular": false,
      "isLandlocked": true,
      "subregion": "Western Asia",
      "populationTier": "small",
      "areaTier": "small",
      "flagComplexity": "simple"
    },
    {
      "iso2": "AU",
      "name": "Australia",
      "capital": "Canberra",
      "continent": "Oceania",
      "lat": -35.2809,
      "lng": 149.13,
      "flag": "au",
      "status": "active",
      "isInsular": true,
      "isLandlocked": false,
      "subregion": "Australia and New Zealand",
      "populationTier": "medium",
      "areaTier": "xlarge",
      "flagComplexity": "complex"
    },
    {
      "iso2": "AT",
      "name": "Austria",
      "capital": "Vienna",
      "continent": "Europe",
      "lat": 48.2082,
      "lng": 16.3738,
      "flag": "at",
      "status": "active",
      "isInsular": false,
      "isLandlocked": true,
      "subregion": "Western Europe",
      "populationTier": "small",
      "areaTier": "small",
      "flagComplexity": "simple"
    },
    {
      "iso2": "AZ",
      "name": "Azerbaijan",
      "capital": "Baku",
      "continent": "Asia",
      "lat": 40.4093,
      "lng": 49.8671,
      "flag": "az",
      "status": "active",
      "isInsular": false,
      "isLandlocked": true,
      "subregion": "Western Asia",
      "populationTier": "small",
      "areaTier": "small",
      "flagComplexity": "moderate"
    },
    {
      "iso2": "BS",
      "name": "Bahamas",
      "capital": "Nassau",
      "continent": "North America",
      "lat": 25.048,
      "lng": -77.3554,
      "flag": "bs",
      "status": "active",
      "isInsular": true,
      "isLandlocked": false,
      "subregion": "Caribbean",
      "populationTier": "micro",
      "areaTier": "micro",
      "flagComplexity": "simple"
    },
    {
      "iso2": "BH",
      "name": "Bahrain",
      "capital": "Manama",
      "continent": "Asia",
      "lat": 26.2285,
      "lng": 50.586,
      "flag": "bh",
      "status": "active",
      "isInsular": true,
      "isLandlocked": false,
      "subregion": "Western Asia",
      "populationTier": "small",
      "areaTier": "micro",
      "flagComplexity": "simple"
    },
    {
      "iso2": "BD",
      "name": "Bangladesh",
      "capital": "Dhaka",
      "continent": "Asia",
      "lat": 23.8103,
      "lng": 90.4125,
      "flag": "bd",
      "status": "active",
      "isInsular": false,
      "isLandlocked": false,
      "subregion": "South Asia",
      "populationTier": "large",
      "areaTier": "small",
      "flagComplexity": "simple"
    },
    {
      "iso2": "BB",
      "name": "Barbados",
      "capital": "Bridgetown",
      "continent": "North America",
      "lat": 13.0969,
      "lng": -59.6145,
      "flag": "bb",
      "status": "active",
      "isInsular": true,
      "isLandlocked": false,
      "subregion": "Caribbean",
      "populationTier": "micro",
      "areaTier": "micro",
      "flagComplexity": "moderate"
    },
    {
      "iso2": "BY",
      "name": "Belarus",
      "capital": "Minsk",
      "continent": "Europe",
      "lat": 53.9006,
      "lng": 27.559,
      "flag": "by",
      "status": "active",
      "isInsular": false,
      "isLandlocked": true,
      "subregion": "Eastern Europe",
      "populationTier": "small",
      "areaTier": "medium",
      "flagComplexity": "moderate"
    },
    {
      "iso2": "BE",
      "name": "Belgium",
      "capital": "Brussels",
      "continent": "Europe",
      "lat": 50.8503,
      "lng": 4.3517,
      "flag": "be",
      "status": "active",
      "isInsular": false,
      "isLandlocked": false,
      "subregion": "Western Europe",
      "populationTier": "small",
      "areaTier": "small",
      "flagComplexity": "simple"
    },
    {
      "iso2": "BZ",
      "name": "Belize",
      "capital": "Belmopan",
      "continent": "North America",
      "lat": 17.251,
      "lng": -88.759,
      "flag": "bz",
      "status": "active",
      "isInsular": false,
      "isLandlocked": false,
      "subregion": "Central America",
      "populationTier": "micro",
      "areaTier": "small",
      "flagComplexity": "complex"
    },
    {
      "iso2": "BJ",
      "name": "Benin",
      "capital": "Porto-Novo",
      "continent": "Africa",
      "lat": 6.4969,
      "lng": 2.6289,
      "flag": "bj",
      "status": "active",
      "isInsular": false,
      "isLandlocked": false,
      "subregion": "Western Africa",
      "populationTier": "small",
      "areaTier": "small",
      "flagComplexity": "simple"
    },
    {
      "iso2": "BT",
      "name": "Bhutan",
      "capital": "Thimphu",
      "continent": "Asia",
      "lat": 27.4728,
      "lng": 89.6393,
      "flag": "bt",
      "status": "active",
      "isInsular": false,
      "isLandlocked": true,
      "subregion": "South Asia",
      "populationTier": "micro",
      "areaTier": "small",
      "flagComplexity": "complex"
    },
    {
      "iso2": "BO",
      "name": "Bolivia",
      "capital": "Sucre",
      "continent": "South America",
      "lat": -19.0196,
      "lng": -65.2619,
      "flag": "bo",
      "status": "active",
      "isInsular": false,
      "isLandlocked": true,
      "subregion": "South America",
      "populationTier": "small",
      "areaTier": "large",
      "flagComplexity": "moderate"
    },
    {
      "iso2": "BA",
      "name": "Bosnia and Herzegovina",
      "capital": "Sarajevo",
      "continent": "Europe",
      "lat": 43.8564,
      "lng": 18.4131,
      "flag": "ba",
      "status": "active",
      "isInsular": false,
      "isLandlocked": false,
      "subregion": "Southern Europe",
      "populationTier": "small",
      "areaTier": "small",
      "flagComplexity": "simple"
    },
    {
      "iso2": "BW",
      "name": "Botswana",
      "capital": "Gaborone",
      "continent": "Africa",
      "lat": -24.6282,
      "lng": 25.9231,
      "flag": "bw",
      "status": "active",
      "isInsular": false,
      "isLandlocked": true,
      "subregion": "Southern Africa",
      "populationTier": "small",
      "areaTier": "medium",
      "flagComplexity": "simple"
    },
    {
      "iso2": "BR",
      "name": "Brazil",
      "capital": "Brasília",
      "continent": "South America",
      "lat": -15.7975,
      "lng": -47.8919,
      "flag": "br",
      "status": "active",
      "isInsular": false,
      "isLandlocked": false,
      "subregion": "South America",
      "populationTier": "large",
      "areaTier": "xlarge",
      "flagComplexity": "complex"
    },
    {
      "iso2": "BN",
      "name": "Brunei",
      "capital": "Bandar Seri Begawan",
      "continent": "Asia",
      "lat": 4.9031,
      "lng": 114.9398,
      "flag": "bn",
      "status": "active",
      "isInsular": false,
      "isLandlocked": false,
      "subregion": "Southeast Asia",
      "populationTier": "micro",
      "areaTier": "micro",
      "flagComplexity": "complex"
    },
    {
      "iso2": "BG",
      "name": "Bulgaria",
      "capital": "Sofia",
      "continent": "Europe",
      "lat": 42.6977,
      "lng": 23.3219,
      "flag": "bg",
      "status": "active",
      "isInsular": false,
      "isLandlocked": false,
      "subregion": "Eastern Europe",
      "populationTier": "small",
      "areaTier": "small",
      "flagComplexity": "moderate"
    },
    {
      "iso2": "BF",
      "name": "Burkina Faso",
      "capital": "Ouagadougou",
      "continent": "Africa",
      "lat": 12.3714,
      "lng": -1.5197,
      "flag": "bf",
      "status": "active",
      "isInsular": false,
      "isLandlocked": true,
      "subregion": "Western Africa",
      "populationTier": "medium",
      "areaTier": "small",
      "flagComplexity": "simple"
    },
    {
      "iso2": "BI",
      "name": "Burundi",
      "capital": "Gitega",
      "continent": "Africa",
      "lat": -3.4264,
      "lng": 29.9306,
      "flag": "bi",
      "status": "active",
      "isInsular": false,
      "isLandlocked": true,
      "subregion": "Eastern Africa",
      "populationTier": "small",
      "areaTier": "small",
      "flagComplexity": "moderate"
    },
    {
      "iso2": "KH",
      "name": "Cambodia",
      "capital": "Phnom Penh",
      "continent": "Asia",
      "lat": 11.5564,
      "lng": 104.9282,
      "flag": "kh",
      "status": "active",
      "isInsular": false,
      "isLandlocked": false,
      "subregion": "Southeast Asia",
      "populationTier": "small",
      "areaTier": "small",
      "flagComplexity": "complex"
    },
    {
      "iso2": "CM",
      "name": "Cameroon",
      "capital": "Yaoundé",
      "continent": "Africa",
      "lat": 3.848,
      "lng": 11.5021,
      "flag": "cm",
      "status": "active",
      "isInsular": false,
      "isLandlocked": false,
      "subregion": "Central Africa",
      "populationTier": "medium",
      "areaTier": "medium",
      "flagComplexity": "simple"
    },
    {
      "iso2": "CA",
      "name": "Canada",
      "capital": "Ottawa",
      "continent": "North America",
      "lat": 45.4215,
      "lng": -75.6972,
      "flag": "ca",
      "status": "active",
      "isInsular": false,
      "isLandlocked": false,
      "subregion": "Northern America",
      "populationTier": "medium",
      "areaTier": "xlarge",
      "flagComplexity": "simple"
    },
    {
      "iso2": "CV",
      "name": "Cape Verde",
      "capital": "Praia",
      "continent": "Africa",
      "lat": 14.933,
      "lng": -23.5133,
      "flag": "cv",
      "status": "active",
      "isInsular": true,
      "isLandlocked": false,
      "subregion": "Western Africa",
      "populationTier": "micro",
      "areaTier": "micro",
      "flagComplexity": "moderate"
    },
    {
      "iso2": "CF",
      "name": "Central African Republic",
      "capital": "Bangui",
      "continent": "Africa",
      "lat": 4.3947,
      "lng": 18.5582,
      "flag": "cf",
      "status": "active",
      "isInsular": false,
      "isLandlocked": true,
      "subregion": "Central Africa",
      "populationTier": "small",
      "areaTier": "large",
      "flagComplexity": "moderate"
    },
    {
      "iso2": "TD",
      "name": "Chad",
      "capital": "N'Djamena",
      "continent": "Africa",
      "lat": 12.1348,
      "lng": 15.0557,
      "flag": "td",
      "status": "active",
      "isInsular": false,
      "isLandlocked": true,
      "subregion": "Central Africa",
      "populationTier": "medium",
      "areaTier": "large",
      "flagComplexity": "simple"
    },
    {
      "iso2": "CL",
      "name": "Chile",
      "capital": "Santiago",
      "continent": "South America",
      "lat": -33.4489,
      "lng": -70.6693,
      "flag": "cl",
      "status": "active",
      "isInsular": false,
      "isLandlocked": false,
      "subregion": "South America",
      "populationTier": "medium",
      "areaTier": "large",
      "flagComplexity": "simple"
    },
    {
      "iso2": "CN",
      "name": "China",
      "capital": "Beijing",
      "continent": "Asia",
      "lat": 39.9042,
      "lng": 116.4074,
      "flag": "cn",
      "status": "active",
      "isInsular": false,
      "isLandlocked": false,
      "subregion": "East Asia",
      "populationTier": "xlarge",
      "areaTier": "xlarge",
      "flagComplexity": "simple"
    },
    {
      "iso2": "CO",
      "name": "Colombia",
      "capital": "Bogotá",
      "continent": "South America",
      "lat": 4.711,
      "lng": -74.0721,
      "flag": "co",
      "status": "active",
      "isInsular": false,
      "isLandlocked": false,
      "subregion": "South America",
      "populationTier": "large",
      "areaTier": "medium",
      "flagComplexity": "moderate"
    },
    {
      "iso2": "KM",
      "name": "Comoros",
      "capital": "Moroni",
      "continent": "Africa",
      "lat": -11.7022,
      "lng": 43.2551,
      "flag": "km",
      "status": "active",
      "isInsular": true,
      "isLandlocked": false,
      "subregion": "Eastern Africa",
      "populationTier": "micro",
      "areaTier": "micro",
      "flagComplexity": "complex"
    },
    {
      "iso2": "CR",
      "name": "Costa Rica",
      "capital": "San José",
      "continent": "North America",
      "lat": 9.9281,
      "lng": -84.0907,
      "flag": "cr",
      "status": "active",
      "isInsular": false,
      "isLandlocked": false,
      "subregion": "Central America",
      "populationTier": "small",
      "areaTier": "small",
      "flagComplexity": "complex"
    },
    {
      "iso2": "HR",
      "name": "Croatia",
      "capital": "Zagreb",
      "continent": "Europe",
      "lat": 45.815,
      "lng": 15.9819,
      "flag": "hr",
      "status": "active",
      "isInsular": false,
      "isLandlocked": false,
      "subregion": "Southern Europe",
      "populationTier": "small",
      "areaTier": "small",
      "flagComplexity": "moderate"
    },
    {
      "iso2": "CU",
      "name": "Cuba",
      "capital": "Havana",
      "continent": "North America",
      "lat": 23.1136,
      "lng": -82.3666,
      "flag": "cu",
      "status": "active",
      "isInsular": true,
      "isLandlocked": false,
      "subregion": "Caribbean",
      "populationTier": "small",
      "areaTier": "small",
      "flagComplexity": "simple"
    },
    {
      "iso2": "CY",
      "name": "Cyprus",
      "capital": "Nicosia",
      "continent": "Europe",
      "lat": 35.1856,
      "lng": 33.3823,
      "flag": "cy",
      "status": "active",
      "isInsular": true,
      "isLandlocked": false,
      "subregion": "Western Asia",
      "populationTier": "small",
      "areaTier": "micro",
      "flagComplexity": "complex"
    },
    {
      "iso2": "CZ",
      "name": "Czech Republic",
      "capital": "Prague",
      "continent": "Europe",
      "lat": 50.0755,
      "lng": 14.4378,
      "flag": "cz",
      "status": "active",
      "isInsular": false,
      "isLandlocked": true,
      "subregion": "Eastern Europe",
      "populationTier": "small",
      "areaTier": "small",
      "flagComplexity": "simple"
    },
    {
      "iso2": "CD",
      "name": "Democratic Republic of the Congo",
      "capital": "Kinshasa",
      "continent": "Africa",
      "lat": -4.4419,
      "lng": 15.2663,
      "flag": "cd",
      "status": "active",
      "isInsular": false,
      "isLandlocked": false,
      "subregion": "Central Africa",
      "populationTier": "large",
      "areaTier": "large",
      "flagComplexity": "moderate"
    },
    {
      "iso2": "DK",
      "name": "Denmark",
      "capital": "Copenhagen",
      "continent": "Europe",
      "lat": 55.6761,
      "lng": 12.5683,
      "flag": "dk",
      "status": "active",
      "isInsular": false,
      "isLandlocked": false,
      "subregion": "Northern Europe",
      "populationTier": "small",
      "areaTier": "small",
      "flagComplexity": "simple"
    },
    {
      "iso2": "DJ",
      "name": "Djibouti",
      "capital": "Djibouti",
      "continent": "Africa",
      "lat": 11.5886,
      "lng": 43.1456,
      "flag": "dj",
      "status": "active",
      "isInsular": false,
      "isLandlocked": false,
      "subregion": "Eastern Africa",
      "populationTier": "micro",
      "areaTier": "micro",
      "flagComplexity": "moderate"
    },
    {
      "iso2": "DM",
      "name": "Dominica",
      "capital": "Roseau",
      "continent": "North America",
      "lat": 15.3092,
      "lng": -61.3794,
      "flag": "dm",
      "status": "active",
      "isInsular": true,
      "isLandlocked": false,
      "subregion": "Caribbean",
      "populationTier": "micro",
      "areaTier": "micro",
      "flagComplexity": "complex"
    },
    {
      "iso2": "DO",
      "name": "Dominican Republic",
      "capital": "Santo Domingo",
      "continent": "North America",
      "lat": 18.4861,
      "lng": -69.9312,
      "flag": "do",
      "status": "active",
      "isInsular": true,
      "isLandlocked": false,
      "subregion": "Caribbean",
      "populationTier": "small",
      "areaTier": "small",
      "flagComplexity": "complex"
    },
    {
      "iso2": "TL",
      "name": "East Timor",
      "capital": "Dili",
      "continent": "Asia",
      "lat": -8.5569,
      "lng": 125.5603,
      "flag": "tl",
      "status": "active",
      "isInsular": true,
      "isLandlocked": false,
      "subregion": "Southeast Asia",
      "populationTier": "small",
      "areaTier": "micro",
      "flagComplexity": "moderate"
    },
    {
      "iso2": "EC",
      "name": "Ecuador",
      "capital": "Quito",
      "continent": "South America",
      "lat": -0.1807,
      "lng": -78.4678,
      "flag": "ec",
      "status": "active",
      "isInsular": false,
      "isLandlocked": false,
      "subregion": "South America",
      "populationTier": "medium",
      "areaTier": "small",
      "flagComplexity": "complex"
    },
    {
      "iso2": "EG",
      "name": "Egypt",
      "capital": "Cairo",
      "continent": "Africa",
      "lat": 30.0444,
      "lng": 31.2357,
      "flag": "eg",
      "status": "active",
      "isInsular": false,
      "isLandlocked": false,
      "subregion": "Northern Africa",
      "populationTier": "large",
      "areaTier": "large",
      "flagComplexity": "moderate"
    },
    {
      "iso2": "SV",
      "name": "El Salvador",
      "capital": "San Salvador",
      "continent": "North America",
      "lat": 13.6929,
      "lng": -89.2182,
      "flag": "sv",
      "status": "active",
      "isInsular": false,
      "isLandlocked": false,
      "subregion": "Central America",
      "populationTier": "small",
      "areaTier": "micro",
      "flagComplexity": "complex"
    },
    {
      "iso2": "GQ",
      "name": "Equatorial Guinea",
      "capital": "Malabo",
      "continent": "Africa",
      "lat": 3.7523,
      "lng": 8.7741,
      "flag": "gq",
      "status": "active",
      "isInsular": false,
      "isLandlocked": false,
      "subregion": "Central Africa",
      "populationTier": "micro",
      "areaTier": "micro",
      "flagComplexity": "simple"
    },
    {
      "iso2": "ER",
      "name": "Eritrea",
      "capital": "Asmara",
      "continent": "Africa",
      "lat": 15.3229,
      "lng": 38.9251,
      "flag": "er",
      "status": "active",
      "isInsular": false,
      "isLandlocked": false,
      "subregion": "Eastern Africa",
      "populationTier": "small",
      "areaTier": "small",
      "flagComplexity": "moderate"
    },
    {
      "iso2": "EE",
      "name": "Estonia",
      "capital": "Tallinn",
      "continent": "Europe",
      "lat": 59.437,
      "lng": 24.7536,
      "flag": "ee",
      "status": "active",
      "isInsular": false,
      "isLandlocked": false,
      "subregion": "Northern Europe",
      "populationTier": "small",
      "areaTier": "small",
      "flagComplexity": "simple"
    },
    {
      "iso2": "SZ",
      "name": "Eswatini",
      "capital": "Mbabane",
      "continent": "Africa",
      "lat": -26.3054,
      "lng": 31.1367,
      "flag": "sz",
      "status": "active",
      "isInsular": false,
      "isLandlocked": true,
      "subregion": "Southern Africa",
      "populationTier": "micro",
      "areaTier": "micro",
      "flagComplexity": "complex"
    },
    {
      "iso2": "ET",
      "name": "Ethiopia",
      "capital": "Addis Ababa",
      "continent": "Africa",
      "lat": 9.032,
      "lng": 38.7469,
      "flag": "et",
      "status": "active",
      "isInsular": false,
      "isLandlocked": true,
      "subregion": "Eastern Africa",
      "populationTier": "large",
      "areaTier": "large",
      "flagComplexity": "simple"
    },
    {
      "iso2": "FJ",
      "name": "Fiji",
      "capital": "Suva",
      "continent": "Oceania",
      "lat": -18.1416,
      "lng": 178.4419,
      "flag": "fj",
      "status": "active",
      "isInsular": true,
      "isLandlocked": false,
      "subregion": "Melanesia",
      "populationTier": "small",
      "areaTier": "micro",
      "flagComplexity": "complex"
    },
    {
      "iso2": "FI",
      "name": "Finland",
      "capital": "Helsinki",
      "continent": "Europe",
      "lat": 60.1699,
      "lng": 24.9384,
      "flag": "fi",
      "status": "active",
      "isInsular": false,
      "isLandlocked": false,
      "subregion": "Northern Europe",
      "populationTier": "small",
      "areaTier": "medium",
      "flagComplexity": "simple"
    },
    {
      "iso2": "FR",
      "name": "France",
      "capital": "Paris",
      "continent": "Europe",
      "lat": 48.8566,
      "lng": 2.3522,
      "flag": "fr",
      "status": "active",
      "isInsular": false,
      "isLandlocked": false,
      "subregion": "Western Europe",
      "populationTier": "large",
      "areaTier": "medium",
      "flagComplexity": "simple"
    },
    {
      "iso2": "GA",
      "name": "Gabon",
      "capital": "Libreville",
      "continent": "Africa",
      "lat": 0.4162,
      "lng": 9.4673,
      "flag": "ga",
      "status": "active",
      "isInsular": false,
      "isLandlocked": false,
      "subregion": "Central Africa",
      "populationTier": "small",
      "areaTier": "medium",
      "flagComplexity": "simple"
    },
    {
      "iso2": "GM",
      "name": "Gambia",
      "capital": "Banjul",
      "continent": "Africa",
      "lat": 13.4549,
      "lng": -16.579,
      "flag": "gm",
      "status": "active",
      "isInsular": false,
      "isLandlocked": false,
      "subregion": "Western Africa",
      "populationTier": "small",
      "areaTier": "micro",
      "flagComplexity": "simple"
    },
    {
      "iso2": "GE",
      "name": "Georgia",
      "capital": "Tbilisi",
      "continent": "Asia",
      "lat": 41.7151,
      "lng": 44.8271,
      "flag": "ge",
      "status": "active",
      "isInsular": false,
      "isLandlocked": false,
      "subregion": "Western Asia",
      "populationTier": "small",
      "areaTier": "small",
      "flagComplexity": "moderate"
    },
    {
      "iso2": "DE",
      "name": "Germany",
      "capital": "Berlin",
      "continent": "Europe",
      "lat": 52.52,
      "lng": 13.405,
      "flag": "de",
      "status": "active",
      "isInsular": false,
      "isLandlocked": false,
      "subregion": "Western Europe",
      "populationTier": "large",
      "areaTier": "medium",
      "flagComplexity": "simple"
    },
    {
      "iso2": "GH",
      "name": "Ghana",
      "capital": "Accra",
      "continent": "Africa",
      "lat": 5.6037,
      "lng": -0.187,
      "flag": "gh",
      "status": "active",
      "isInsular": false,
      "isLandlocked": false,
      "subregion": "Western Africa",
      "populationTier": "medium",
      "areaTier": "small",
      "flagComplexity": "moderate"
    },
    {
      "iso2": "GR",
      "name": "Greece",
      "capital": "Athens",
      "continent": "Europe",
      "lat": 37.9838,
      "lng": 23.7275,
      "flag": "gr",
      "status": "active",
      "isInsular": false,
      "isLandlocked": false,
      "subregion": "Southern Europe",
      "populationTier": "small",
      "areaTier": "small",
      "flagComplexity": "simple"
    },
    {
      "iso2": "GD",
      "name": "Grenada",
      "capital": "Saint George's",
      "continent": "North America",
      "lat": 12.0564,
      "lng": -61.7485,
      "flag": "gd",
      "status": "active",
      "isInsular": true,
      "isLandlocked": false,
      "subregion": "Caribbean",
      "populationTier": "micro",
      "areaTier": "micro",
      "flagComplexity": "moderate"
    },
    {
      "iso2": "GT",
      "name": "Guatemala",
      "capital": "Guatemala City",
      "continent": "North America",
      "lat": 14.6349,
      "lng": -90.5069,
      "flag": "gt",
      "status": "active",
      "isInsular": false,
      "isLandlocked": false,
      "subregion": "Central America",
      "populationTier": "small",
      "areaTier": "small",
      "flagComplexity": "complex"
    },
    {
      "iso2": "GN",
      "name": "Guinea",
      "capital": "Conakry",
      "continent": "Africa",
      "lat": 9.6412,
      "lng": -13.5784,
      "flag": "gn",
      "status": "active",
      "isInsular": false,
      "isLandlocked": false,
      "subregion": "Western Africa",
      "populationTier": "small",
      "areaTier": "small",
      "flagComplexity": "simple"
    },
    {
      "iso2": "GW",
      "name": "Guinea-Bissau",
      "capital": "Bissau",
      "continent": "Africa",
      "lat": 11.8816,
      "lng": -15.6178,
      "flag": "gw",
      "status": "active",
      "isInsular": false,
      "isLandlocked": false,
      "subregion": "Western Africa",
      "populationTier": "small",
      "areaTier": "micro",
      "flagComplexity": "moderate"
    },
    {
      "iso2": "GY",
      "name": "Guyana",
      "capital": "Georgetown",
      "continent": "South America",
      "lat": 6.8013,
      "lng": -58.1551,
      "flag": "gy",
      "status": "active",
      "isInsular": false,
      "isLandlocked": false,
      "subregion": "South America",
      "populationTier": "small",
      "areaTier": "medium",
      "flagComplexity": "moderate"
    },
    {
      "iso2": "HT",
      "name": "Haiti",
      "capital": "Port-au-Prince",
      "continent": "North America",
      "lat": 18.5944,
      "lng": -72.3074,
      "flag": "ht",
      "status": "active",
      "isInsular": true,
      "isLandlocked": false,
      "subregion": "Caribbean",
      "populationTier": "small",
      "areaTier": "micro",
      "flagComplexity": "moderate"
    },
    {
      "iso2": "HN",
      "name": "Honduras",
      "capital": "Tegucigalpa",
      "continent": "North America",
      "lat": 14.0723,
      "lng": -87.1921,
      "flag": "hn",
      "status": "active",
      "isInsular": false,
      "isLandlocked": false,
      "subregion": "Central America",
      "populationTier": "small",
      "areaTier": "small",
      "flagComplexity": "complex"
    },
    {
      "iso2": "HU",
      "name": "Hungary",
      "capital": "Budapest",
      "continent": "Europe",
      "lat": 47.4979,
      "lng": 19.0402,
      "flag": "hu",
      "status": "active",
      "isInsular": false,
      "isLandlocked": true,
      "subregion": "Eastern Europe",
      "populationTier": "small",
      "areaTier": "small",
      "flagComplexity": "moderate"
    },
    {
      "iso2": "IS",
      "name": "Iceland",
      "capital": "Reykjavik",
      "continent": "Europe",
      "lat": 64.1466,
      "lng": -21.9426,
      "flag": "is",
      "status": "active",
      "isInsular": true,
      "isLandlocked": false,
      "subregion": "Northern Europe",
      "populationTier": "micro",
      "areaTier": "small",
      "flagComplexity": "simple"
    },
    {
      "iso2": "IN",
      "name": "India",
      "capital": "New Delhi",
      "continent": "Asia",
      "lat": 28.6139,
      "lng": 77.209,
      "flag": "in",
      "status": "active",
      "isInsular": false,
      "isLandlocked": false,
      "subregion": "South Asia",
      "populationTier": "xlarge",
      "areaTier": "large",
      "flagComplexity": "moderate"
    },
    {
      "iso2": "ID",
      "name": "Indonesia",
      "capital": "Jakarta",
      "continent": "Asia",
      "lat": -6.2088,
      "lng": 106.8456,
      "flag": "id",
      "status": "active",
      "isInsular": true,
      "isLandlocked": false,
      "subregion": "Southeast Asia",
      "populationTier": "large",
      "areaTier": "large",
      "flagComplexity": "simple"
    },
    {
      "iso2": "IR",
      "name": "Iran",
      "capital": "Tehran",
      "continent": "Asia",
      "lat": 35.6892,
      "lng": 51.389,
      "flag": "ir",
      "status": "active",
      "isInsular": false,
      "isLandlocked": false,
      "subregion": "Western Asia",
      "populationTier": "large",
      "areaTier": "large",
      "flagComplexity": "complex"
    },
    {
      "iso2": "IQ",
      "name": "Iraq",
      "capital": "Baghdad",
      "continent": "Asia",
      "lat": 33.3152,
      "lng": 44.3661,
      "flag": "iq",
      "status": "active",
      "isInsular": false,
      "isLandlocked": false,
      "subregion": "Western Asia",
      "populationTier": "medium",
      "areaTier": "medium",
      "flagComplexity": "complex"
    },
    {
      "iso2": "IE",
      "name": "Ireland",
      "capital": "Dublin",
      "continent": "Europe",
      "lat": 53.3498,
      "lng": -6.2603,
      "flag": "ie",
      "status": "active",
      "isInsular": true,
      "isLandlocked": false,
      "subregion": "Northern Europe",
      "populationTier": "small",
      "areaTier": "small",
      "flagComplexity": "simple"
    },
    {
      "iso2": "IL",
      "name": "Israel",
      "capital": "Jerusalem",
      "continent": "Asia",
      "lat": 31.7683,
      "lng": 35.2137,
      "flag": "il",
      "status": "active",
      "isInsular": false,
      "isLandlocked": false,
      "subregion": "Western Asia",
      "populationTier": "small",
      "areaTier": "micro",
      "flagComplexity": "moderate"
    },
    {
      "iso2": "IT",
      "name": "Italy",
      "capital": "Rome",
      "continent": "Europe",
      "lat": 41.9028,
      "lng": 12.4964,
      "flag": "it",
      "status": "active",
      "isInsular": false,
      "isLandlocked": false,
      "subregion": "Southern Europe",
      "populationTier": "large",
      "areaTier": "medium",
      "flagComplexity": "simple"
    },
    {
      "iso2": "CI",
      "name": "Ivory Coast",
      "capital": "Yamoussoukro",
      "continent": "Africa",
      "lat": 6.8276,
      "lng": -5.2893,
      "flag": "ci",
      "status": "active",
      "isInsular": false,
      "isLandlocked": false,
      "subregion": "Western Africa",
      "populationTier": "medium",
      "areaTier": "small",
      "flagComplexity": "simple"
    },
    {
      "iso2": "JM",
      "name": "Jamaica",
      "capital": "Kingston",
      "continent": "North America",
      "lat": 18.0179,
      "lng": -76.8099,
      "flag": "jm",
      "status": "active",
      "isInsular": true,
      "isLandlocked": false,
      "subregion": "Caribbean",
      "populationTier": "small",
      "areaTier": "micro",
      "flagComplexity": "moderate"
    },
    {
      "iso2": "JP",
      "name": "Japan",
      "capital": "Tokyo",
      "continent": "Asia",
      "lat": 35.6762,
      "lng": 139.6503,
      "flag": "jp",
      "status": "active",
      "isInsular": true,
      "isLandlocked": false,
      "subregion": "East Asia",
      "populationTier": "large",
      "areaTier": "medium",
      "flagComplexity": "simple"
    },
    {
      "iso2": "JO",
      "name": "Jordan",
      "capital": "Amman",
      "continent": "Asia",
      "lat": 31.9454,
      "lng": 35.9284,
      "flag": "jo",
      "status": "active",
      "isInsular": false,
      "isLandlocked": false,
      "subregion": "Western Asia",
      "populationTier": "small",
      "areaTier": "small",
      "flagComplexity": "moderate"
    },
    {
      "iso2": "KZ",
      "name": "Kazakhstan",
      "capital": "Astana",
      "continent": "Asia",
      "lat": 51.1694,
      "lng": 71.4491,
      "flag": "kz",
      "status": "active",
      "isInsular": false,
      "isLandlocked": true,
      "subregion": "Central Asia",
      "populationTier": "medium",
      "areaTier": "large",
      "flagComplexity": "moderate"
    },
    {
      "iso2": "KE",
      "name": "Kenya",
      "capital": "Nairobi",
      "continent": "Africa",
      "lat": -1.2921,
      "lng": 36.8219,
      "flag": "ke",
      "status": "active",
      "isInsular": false,
      "isLandlocked": false,
      "subregion": "Eastern Africa",
      "populationTier": "large",
      "areaTier": "medium",
      "flagComplexity": "moderate"
    },
    {
      "iso2": "KI",
      "name": "Kiribati",
      "capital": "Tarawa",
      "continent": "Oceania",
      "lat": 1.4518,
      "lng": 172.9717,
      "flag": "ki",
      "status": "active",
      "isInsular": true,
      "isLandlocked": false,
      "subregion": "Micronesia",
      "populationTier": "micro",
      "areaTier": "micro",
      "flagComplexity": "complex"
    },
    {
      "iso2": "XK",
      "name": "Kosovo",
      "capital": "Pristina",
      "continent": "Europe",
      "lat": 42.6629,
      "lng": 21.1655,
      "flag": "xk",
      "status": "active",
      "isInsular": false,
      "isLandlocked": true,
      "subregion": "Southern Europe",
      "populationTier": "small",
      "areaTier": "micro",
      "flagComplexity": "moderate"
    },
    {
      "iso2": "KW",
      "name": "Kuwait",
      "capital": "Kuwait City",
      "continent": "Asia",
      "lat": 29.3759,
      "lng": 47.9774,
      "flag": "kw",
      "status": "active",
      "isInsular": false,
      "isLandlocked": false,
      "subregion": "Western Asia",
      "populationTier": "small",
      "areaTier": "micro",
      "flagComplexity": "simple"
    },
    {
      "iso2": "KG",
      "name": "Kyrgyzstan",
      "capital": "Bishkek",
      "continent": "Asia",
      "lat": 42.8746,
      "lng": 74.5698,
      "flag": "kg",
      "status": "active",
      "isInsular": false,
      "isLandlocked": true,
      "subregion": "Central Asia",
      "populationTier": "small",
      "areaTier": "small",
      "flagComplexity": "complex"
    },
    {
      "iso2": "LA",
      "name": "Laos",
      "capital": "Vientiane",
      "continent": "Asia",
      "lat": 17.9757,
      "lng": 102.6331,
      "flag": "la",
      "status": "active",
      "isInsular": false,
      "isLandlocked": true,
      "subregion": "Southeast Asia",
      "populationTier": "small",
      "areaTier": "medium",
      "flagComplexity": "simple"
    },
    {
      "iso2": "LV",
      "name": "Latvia",
      "capital": "Riga",
      "continent": "Europe",
      "lat": 56.9496,
      "lng": 24.1052,
      "flag": "lv",
      "status": "active",
      "isInsular": false,
      "isLandlocked": false,
      "subregion": "Northern Europe",
      "populationTier": "small",
      "areaTier": "small",
      "flagComplexity": "simple"
    },
    {
      "iso2": "LB",
      "name": "Lebanon",
      "capital": "Beirut",
      "continent": "Asia",
      "lat": 33.8938,
      "lng": 35.5018,
      "flag": "lb",
      "status": "active",
      "isInsular": false,
      "isLandlocked": false,
      "subregion": "Western Asia",
      "populationTier": "small",
      "areaTier": "micro",
      "flagComplexity": "moderate"
    },
    {
      "iso2": "LS",
      "name": "Lesotho",
      "capital": "Maseru",
      "continent": "Africa",
      "lat": -29.3167,
      "lng": 27.4833,
      "flag": "ls",
      "status": "active",
      "isInsular": false,
      "isLandlocked": true,
      "subregion": "Southern Africa",
      "populationTier": "small",
      "areaTier": "small",
      "flagComplexity": "moderate"
    },
    {
      "iso2": "LR",
      "name": "Liberia",
      "capital": "Monrovia",
      "continent": "Africa",
      "lat": 6.3156,
      "lng": -10.8074,
      "flag": "lr",
      "status": "active",
      "isInsular": false,
      "isLandlocked": false,
      "subregion": "Western Africa",
      "populationTier": "small",
      "areaTier": "small",
      "flagComplexity": "moderate"
    },
    {
      "iso2": "LY",
      "name": "Libya",
      "capital": "Tripoli",
      "continent": "Africa",
      "lat": 32.8872,
      "lng": 13.1913,
      "flag": "ly",
      "status": "active",
      "isInsular": false,
      "isLandlocked": false,
      "subregion": "Northern Africa",
      "populationTier": "small",
      "areaTier": "large",
      "flagComplexity": "simple"
    },
    {
      "iso2": "LI",
      "name": "Liechtenstein",
      "capital": "Vaduz",
      "continent": "Europe",
      "lat": 47.141,
      "lng": 9.5209,
      "flag": "li",
      "status": "active",
      "isInsular": false,
      "isLandlocked": true,
      "subregion": "Western Europe",
      "populationTier": "micro",
      "areaTier": "micro",
      "flagComplexity": "simple"
    },
    {
      "iso2": "LT",
      "name": "Lithuania",
      "capital": "Vilnius",
      "continent": "Europe",
      "lat": 54.6872,
      "lng": 25.2797,
      "flag": "lt",
      "status": "active",
      "isInsular": false,
      "isLandlocked": false,
      "subregion": "Northern Europe",
      "populationTier": "small",
      "areaTier": "small",
      "flagComplexity": "simple"
    },
    {
      "iso2": "LU",
      "name": "Luxembourg",
      "capital": "Luxembourg City",
      "continent": "Europe",
      "lat": 49.6117,
      "lng": 6.13,
      "flag": "lu",
      "status": "active",
      "isInsular": false,
      "isLandlocked": true,
      "subregion": "Western Europe",
      "populationTier": "small",
      "areaTier": "micro",
      "flagComplexity": "moderate"
    },
    {
      "iso2": "MG",
      "name": "Madagascar",
      "capital": "Antananarivo",
      "continent": "Africa",
      "lat": -18.8792,
      "lng": 47.5079,
      "flag": "mg",
      "status": "active",
      "isInsular": true,
      "isLandlocked": false,
      "subregion": "Eastern Africa",
      "populationTier": "medium",
      "areaTier": "medium",
      "flagComplexity": "simple"
    },
    {
      "iso2": "MW",
      "name": "Malawi",
      "capital": "Lilongwe",
      "continent": "Africa",
      "lat": -13.9626,
      "lng": 33.7741,
      "flag": "mw",
      "status": "active",
      "isInsular": false,
      "isLandlocked": true,
      "subregion": "Eastern Africa",
      "populationTier": "medium",
      "areaTier": "small",
      "flagComplexity": "moderate"
    },
    {
      "iso2": "MY",
      "name": "Malaysia",
      "capital": "Kuala Lumpur",
      "continent": "Asia",
      "lat": 3.139,
      "lng": 101.6869,
      "flag": "my",
      "status": "active",
      "isInsular": false,
      "isLandlocked": false,
      "subregion": "Southeast Asia",
      "populationTier": "medium",
      "areaTier": "medium",
      "flagComplexity": "moderate"
    },
    {
      "iso2": "MV",
      "name": "Maldives",
      "capital": "Malé",
      "continent": "Asia",
      "lat": 4.1755,
      "lng": 73.5093,
      "flag": "mv",
      "status": "active",
      "isInsular": true,
      "isLandlocked": false,
      "subregion": "South Asia",
      "populationTier": "micro",
      "areaTier": "micro",
      "flagComplexity": "moderate"
    },
    {
      "iso2": "ML",
      "name": "Mali",
      "capital": "Bamako",
      "continent": "Africa",
      "lat": 12.6392,
      "lng": -8.0029,
      "flag": "ml",
      "status": "active",
      "isInsular": false,
      "isLandlocked": true,
      "subregion": "Western Africa",
      "populationTier": "medium",
      "areaTier": "large",
      "flagComplexity": "simple"
    },
    {
      "iso2": "MT",
      "name": "Malta",
      "capital": "Valletta",
      "continent": "Europe",
      "lat": 35.8989,
      "lng": 14.5146,
      "flag": "mt",
      "status": "active",
      "isInsular": true,
      "isLandlocked": false,
      "subregion": "Southern Europe",
      "populationTier": "micro",
      "areaTier": "micro",
      "flagComplexity": "moderate"
    },
    {
      "iso2": "MH",
      "name": "Marshall Islands",
      "capital": "Majuro",
      "continent": "Oceania",
      "lat": 7.0897,
      "lng": 171.3803,
      "flag": "mh",
      "status": "active",
      "isInsular": true,
      "isLandlocked": false,
      "subregion": "Micronesia",
      "populationTier": "micro",
      "areaTier": "micro",
      "flagComplexity": "moderate"
    },
    {
      "iso2": "MR",
      "name": "Mauritania",
      "capital": "Nouakchott",
      "continent": "Africa",
      "lat": 18.0735,
      "lng": -15.9582,
      "flag": "mr",
      "status": "active",
      "isInsular": false,
      "isLandlocked": false,
      "subregion": "Western Africa",
      "populationTier": "small",
      "areaTier": "large",
      "flagComplexity": "moderate"
    },
    {
      "iso2": "MU",
      "name": "Mauritius",
      "capital": "Port Louis",
      "continent": "Africa",
      "lat": -20.1609,
      "lng": 57.5012,
      "flag": "mu",
      "status": "active",
      "isInsular": true,
      "isLandlocked": false,
      "subregion": "Eastern Africa",
      "populationTier": "small",
      "areaTier": "micro",
      "flagComplexity": "moderate"
    },
    {
      "iso2": "MX",
      "name": "Mexico",
      "capital": "Mexico City",
      "continent": "North America",
      "lat": 19.4326,
      "lng": -99.1332,
      "flag": "mx",
      "status": "active",
      "isInsular": false,
      "isLandlocked": false,
      "subregion": "Northern America",
      "populationTier": "large",
      "areaTier": "large",
      "flagComplexity": "complex"
    },
    {
      "iso2": "FM",
      "name": "Micronesia",
      "capital": "Palikir",
      "continent": "Oceania",
      "lat": 6.9147,
      "lng": 158.1611,
      "flag": "fm",
      "status": "active",
      "isInsular": true,
      "isLandlocked": false,
      "subregion": "Micronesia",
      "populationTier": "micro",
      "areaTier": "micro",
      "flagComplexity": "moderate"
    },
    {
      "iso2": "MD",
      "name": "Moldova",
      "capital": "Chișinău",
      "continent": "Europe",
      "lat": 47.0105,
      "lng": 28.8638,
      "flag": "md",
      "status": "active",
      "isInsular": false,
      "isLandlocked": true,
      "subregion": "Eastern Europe",
      "populationTier": "small",
      "areaTier": "small",
      "flagComplexity": "moderate"
    },
    {
      "iso2": "MC",
      "name": "Monaco",
      "capital": "Monaco",
      "continent": "Europe",
      "lat": 43.7384,
      "lng": 7.4246,
      "flag": "mc",
      "status": "active",
      "isInsular": false,
      "isLandlocked": false,
      "subregion": "Western Europe",
      "populationTier": "micro",
      "areaTier": "micro",
      "flagComplexity": "simple"
    },
    {
      "iso2": "MN",
      "name": "Mongolia",
      "capital": "Ulaanbaatar",
      "continent": "Asia",
      "lat": 47.8864,
      "lng": 106.9057,
      "flag": "mn",
      "status": "active",
      "isInsular": false,
      "isLandlocked": true,
      "subregion": "East Asia",
      "populationTier": "small",
      "areaTier": "large",
      "flagComplexity": "moderate"
    },
    {
      "iso2": "ME",
      "name": "Montenegro",
      "capital": "Podgorica",
      "continent": "Europe",
      "lat": 42.4304,
      "lng": 19.2594,
      "flag": "me",
      "status": "active",
      "isInsular": false,
      "isLandlocked": false,
      "subregion": "Southern Europe",
      "populationTier": "micro",
      "areaTier": "micro",
      "flagComplexity": "moderate"
    },
    {
      "iso2": "MA",
      "name": "Morocco",
      "capital": "Rabat",
      "continent": "Africa",
      "lat": 34.0209,
      "lng": -6.8416,
      "flag": "ma",
      "status": "active",
      "isInsular": false,
      "isLandlocked": false,
      "subregion": "Northern Africa",
      "populationTier": "large",
      "areaTier": "medium",
      "flagComplexity": "moderate"
    },
    {
      "iso2": "MZ",
      "name": "Mozambique",
      "capital": "Maputo",
      "continent": "Africa",
      "lat": -25.9692,
      "lng": 32.5732,
      "flag": "mz",
      "status": "active",
      "isInsular": false,
      "isLandlocked": false,
      "subregion": "Eastern Africa",
      "populationTier": "medium",
      "areaTier": "large",
      "flagComplexity": "moderate"
    },
    {
      "iso2": "MM",
      "name": "Myanmar",
      "capital": "Naypyidaw",
      "continent": "Asia",
      "lat": 19.7633,
      "lng": 96.0785,
      "flag": "mm",
      "status": "active",
      "isInsular": false,
      "isLandlocked": false,
      "subregion": "Southeast Asia",
      "populationTier": "large",
      "areaTier": "medium",
      "flagComplexity": "moderate"
    },
    {
      "iso2": "NA",
      "name": "Namibia",
      "capital": "Windhoek",
      "continent": "Africa",
      "lat": -22.5609,
      "lng": 17.0658,
      "flag": "na",
      "status": "active",
      "isInsular": false,
      "isLandlocked": false,
      "subregion": "Southern Africa",
      "populationTier": "small",
      "areaTier": "large",
      "flagComplexity": "moderate"
    },
    {
      "iso2": "NR",
      "name": "Nauru",
      "capital": "Yaren",
      "continent": "Oceania",
      "lat": -0.5477,
      "lng": 166.9209,
      "flag": "nr",
      "status": "active",
      "isInsular": true,
      "isLandlocked": false,
      "subregion": "Micronesia",
      "populationTier": "micro",
      "areaTier": "micro",
      "flagComplexity": "moderate"
    },
    {
      "iso2": "NP",
      "name": "Nepal",
      "capital": "Kathmandu",
      "continent": "Asia",
      "lat": 27.7172,
      "lng": 85.324,
      "flag": "np",
      "status": "active",
      "isInsular": false,
      "isLandlocked": true,
      "subregion": "South Asia",
      "populationTier": "medium",
      "areaTier": "small",
      "flagComplexity": "complex"
    },
    {
      "iso2": "NL",
      "name": "Netherlands",
      "capital": "Amsterdam",
      "continent": "Europe",
      "lat": 52.3676,
      "lng": 4.9041,
      "flag": "nl",
      "status": "active",
      "isInsular": false,
      "isLandlocked": false,
      "subregion": "Western Europe",
      "populationTier": "medium",
      "areaTier": "small",
      "flagComplexity": "simple"
    },
    {
      "iso2": "NZ",
      "name": "New Zealand",
      "capital": "Wellington",
      "continent": "Oceania",
      "lat": -41.2865,
      "lng": 174.7762,
      "flag": "nz",
      "status": "active",
      "isInsular": true,
      "isLandlocked": false,
      "subregion": "Australia and New Zealand",
      "populationTier": "small",
      "areaTier": "medium",
      "flagComplexity": "complex"
    },
    {
      "iso2": "NI",
      "name": "Nicaragua",
      "capital": "Managua",
      "continent": "North America",
      "lat": 12.1149,
      "lng": -86.2362,
      "flag": "ni",
      "status": "active",
      "isInsular": false,
      "isLandlocked": false,
      "subregion": "Central America",
      "populationTier": "small",
      "areaTier": "small",
      "flagComplexity": "complex"
    },
    {
      "iso2": "NE",
      "name": "Niger",
      "capital": "Niamey",
      "continent": "Africa",
      "lat": 13.5137,
      "lng": 2.1098,
      "flag": "ne",
      "status": "active",
      "isInsular": false,
      "isLandlocked": true,
      "subregion": "Western Africa",
      "populationTier": "medium",
      "areaTier": "large",
      "flagComplexity": "simple"
    },
    {
      "iso2": "NG",
      "name": "Nigeria",
      "capital": "Abuja",
      "continent": "Africa",
      "lat": 9.0579,
      "lng": 7.4951,
      "flag": "ng",
      "status": "active",
      "isInsular": false,
      "isLandlocked": false,
      "subregion": "Western Africa",
      "populationTier": "large",
      "areaTier": "medium",
      "flagComplexity": "moderate"
    },
    {
      "iso2": "KP",
      "name": "North Korea",
      "capital": "Pyongyang",
      "continent": "Asia",
      "lat": 39.0392,
      "lng": 125.7625,
      "flag": "kp",
      "status": "active",
      "isInsular": false,
      "isLandlocked": false,
      "subregion": "East Asia",
      "populationTier": "medium",
      "areaTier": "small",
      "flagComplexity": "moderate"
    },
    {
      "iso2": "MK",
      "name": "North Macedonia",
      "capital": "Skopje",
      "continent": "Europe",
      "lat": 41.9973,
      "lng": 21.428,
      "flag": "mk",
      "status": "active",
      "isInsular": false,
      "isLandlocked": true,
      "subregion": "Southern Europe",
      "populationTier": "small",
      "areaTier": "small",
      "flagComplexity": "moderate"
    },
    {
      "iso2": "NO",
      "name": "Norway",
      "capital": "Oslo",
      "continent": "Europe",
      "lat": 59.9139,
      "lng": 10.7522,
      "flag": "no",
      "status": "active",
      "isInsular": false,
      "isLandlocked": false,
      "subregion": "Northern Europe",
      "populationTier": "small",
      "areaTier": "medium",
      "flagComplexity": "simple"
    },
    {
      "iso2": "OM",
      "name": "Oman",
      "capital": "Muscat",
      "continent": "Asia",
      "lat": 23.588,
      "lng": 58.3829,
      "flag": "om",
      "status": "active",
      "isInsular": false,
      "isLandlocked": false,
      "subregion": "Western Asia",
      "populationTier": "small",
      "areaTier": "medium",
      "flagComplexity": "moderate"
    },
    {
      "iso2": "PK",
      "name": "Pakistan",
      "capital": "Islamabad",
      "continent": "Asia",
      "lat": 33.6844,
      "lng": 73.0479,
      "flag": "pk",
      "status": "active",
      "isInsular": false,
      "isLandlocked": false,
      "subregion": "South Asia",
      "populationTier": "large",
      "areaTier": "medium",
      "flagComplexity": "moderate"
    },
    {
      "iso2": "PW",
      "name": "Palau",
      "capital": "Ngerulmud",
      "continent": "Oceania",
      "lat": 7.5006,
      "lng": 134.6242,
      "flag": "pw",
      "status": "active",
      "isInsular": true,
      "isLandlocked": false,
      "subregion": "Micronesia",
      "populationTier": "micro",
      "areaTier": "micro",
      "flagComplexity": "simple"
    },
    {
      "iso2": "PS",
      "name": "Palestine",
      "capital": "Ramallah",
      "continent": "Asia",
      "lat": 31.9038,
      "lng": 35.2034,
      "flag": "ps",
      "status": "active",
      "isInsular": false,
      "isLandlocked": false,
      "subregion": "Western Asia",
      "populationTier": "small",
      "areaTier": "micro",
      "flagComplexity": "moderate"
    },
    {
      "iso2": "PA",
      "name": "Panama",
      "capital": "Panama City",
      "continent": "North America",
      "lat": 8.9824,
      "lng": -79.5199,
      "flag": "pa",
      "status": "active",
      "isInsular": false,
      "isLandlocked": false,
      "subregion": "Central America",
      "populationTier": "small",
      "areaTier": "small",
      "flagComplexity": "moderate"
    },
    {
      "iso2": "PG",
      "name": "Papua New Guinea",
      "capital": "Port Moresby",
      "continent": "Oceania",
      "lat": -9.4438,
      "lng": 147.1803,
      "flag": "pg",
      "status": "active",
      "isInsular": true,
      "isLandlocked": false,
      "subregion": "Melanesia",
      "populationTier": "small",
      "areaTier": "medium",
      "flagComplexity": "moderate"
    },
    {
      "iso2": "PY",
      "name": "Paraguay",
      "capital": "Asunción",
      "continent": "South America",
      "lat": -25.2637,
      "lng": -57.5759,
      "flag": "py",
      "status": "active",
      "isInsular": false,
      "isLandlocked": true,
      "subregion": "South America",
      "populationTier": "small",
      "areaTier": "medium",
      "flagComplexity": "moderate"
    },
    {
      "iso2": "PE",
      "name": "Peru",
      "capital": "Lima",
      "continent": "South America",
      "lat": -12.0464,
      "lng": -77.0428,
      "flag": "pe",
      "status": "active",
      "isInsular": false,
      "isLandlocked": false,
      "subregion": "South America",
      "populationTier": "medium",
      "areaTier": "large",
      "flagComplexity": "simple"
    },
    {
      "iso2": "PH",
      "name": "Philippines",
      "capital": "Manila",
      "continent": "Asia",
      "lat": 14.5995,
      "lng": 120.9842,
      "flag": "ph",
      "status": "active",
      "isInsular": true,
      "isLandlocked": false,
      "subregion": "Southeast Asia",
      "populationTier": "large",
      "areaTier": "medium",
      "flagComplexity": "moderate"
    },
    {
      "iso2": "PL",
      "name": "Poland",
      "capital": "Warsaw",
      "continent": "Europe",
      "lat": 52.2297,
      "lng": 21.0122,
      "flag": "pl",
      "status": "active",
      "isInsular": false,
      "isLandlocked": false,
      "subregion": "Eastern Europe",
      "populationTier": "medium",
      "areaTier": "medium",
      "flagComplexity": "simple"
    },
    {
      "iso2": "PT",
      "name": "Portugal",
      "capital": "Lisbon",
      "continent": "Europe",
      "lat": 38.7223,
      "lng": -9.1393,
      "flag": "pt",
      "status": "active",
      "isInsular": false,
      "isLandlocked": false,
      "subregion": "Southern Europe",
      "populationTier": "small",
      "areaTier": "small",
      "flagComplexity": "moderate"
    },
    {
      "iso2": "QA",
      "name": "Qatar",
      "capital": "Doha",
      "continent": "Asia",
      "lat": 25.2854,
      "lng": 51.531,
      "flag": "qa",
      "status": "active",
      "isInsular": false,
      "isLandlocked": false,
      "subregion": "Western Asia",
      "populationTier": "small",
      "areaTier": "micro",
      "flagComplexity": "moderate"
    },
    {
      "iso2": "CG",
      "name": "Republic of the Congo",
      "capital": "Brazzaville",
      "continent": "Africa",
      "lat": -4.2634,
      "lng": 15.2429,
      "flag": "cg",
      "status": "active",
      "isInsular": false,
      "isLandlocked": false,
      "subregion": "Central Africa",
      "populationTier": "small",
      "areaTier": "medium",
      "flagComplexity": "simple"
    },
    {
      "iso2": "RO",
      "name": "Romania",
      "capital": "Bucharest",
      "continent": "Europe",
      "lat": 44.4268,
      "lng": 26.1025,
      "flag": "ro",
      "status": "active",
      "isInsular": false,
      "isLandlocked": false,
      "subregion": "Eastern Europe",
      "populationTier": "medium",
      "areaTier": "medium",
      "flagComplexity": "simple"
    },
    {
      "iso2": "RU",
      "name": "Russia",
      "capital": "Moscow",
      "continent": "Europe",
      "lat": 55.7558,
      "lng": 37.6173,
      "flag": "ru",
      "status": "active",
      "isInsular": false,
      "isLandlocked": false,
      "subregion": "Eastern Europe",
      "populationTier": "large",
      "areaTier": "xlarge",
      "flagComplexity": "simple"
    },
    {
      "iso2": "RW",
      "name": "Rwanda",
      "capital": "Kigali",
      "continent": "Africa",
      "lat": -1.9403,
      "lng": 29.8739,
      "flag": "rw",
      "status": "active",
      "isInsular": false,
      "isLandlocked": true,
      "subregion": "Eastern Africa",
      "populationTier": "small",
      "areaTier": "micro",
      "flagComplexity": "moderate"
    },
    {
      "iso2": "KN",
      "name": "Saint Kitts and Nevis",
      "capital": "Basseterre",
      "continent": "North America",
      "lat": 17.3026,
      "lng": -62.7177,
      "flag": "kn",
      "status": "active",
      "isInsular": true,
      "isLandlocked": false,
      "subregion": "Caribbean",
      "populationTier": "micro",
      "areaTier": "micro",
      "flagComplexity": "moderate"
    },
    {
      "iso2": "LC",
      "name": "Saint Lucia",
      "capital": "Castries",
      "continent": "North America",
      "lat": 14.0101,
      "lng": -60.9875,
      "flag": "lc",
      "status": "active",
      "isInsular": true,
      "isLandlocked": false,
      "subregion": "Caribbean",
      "populationTier": "micro",
      "areaTier": "micro",
      "flagComplexity": "moderate"
    },
    {
      "iso2": "VC",
      "name": "Saint Vincent and the Grenadines",
      "capital": "Kingstown",
      "continent": "North America",
      "lat": 13.1587,
      "lng": -61.2248,
      "flag": "vc",
      "status": "active",
      "isInsular": true,
      "isLandlocked": false,
      "subregion": "Caribbean",
      "populationTier": "micro",
      "areaTier": "micro",
      "flagComplexity": "moderate"
    },
    {
      "iso2": "WS",
      "name": "Samoa",
      "capital": "Apia",
      "continent": "Oceania",
      "lat": -13.8333,
      "lng": -171.75,
      "flag": "ws",
      "status": "active",
      "isInsular": true,
      "isLandlocked": false,
      "subregion": "Polynesia",
      "populationTier": "micro",
      "areaTier": "micro",
      "flagComplexity": "simple"
    },
    {
      "iso2": "SM",
      "name": "San Marino",
      "capital": "San Marino",
      "continent": "Europe",
      "lat": 43.9424,
      "lng": 12.4578,
      "flag": "sm",
      "status": "active",
      "isInsular": false,
      "isLandlocked": true,
      "subregion": "Southern Europe",
      "populationTier": "micro",
      "areaTier": "micro",
      "flagComplexity": "moderate"
    },
    {
      "iso2": "ST",
      "name": "São Tomé and Príncipe",
      "capital": "São Tomé",
      "continent": "Africa",
      "lat": 0.3302,
      "lng": 6.7333,
      "flag": "st",
      "status": "active",
      "isInsular": true,
      "isLandlocked": false,
      "subregion": "Central Africa",
      "populationTier": "micro",
      "areaTier": "micro",
      "flagComplexity": "moderate"
    },
    {
      "iso2": "SA",
      "name": "Saudi Arabia",
      "capital": "Riyadh",
      "continent": "Asia",
      "lat": 24.7136,
      "lng": 46.6753,
      "flag": "sa",
      "status": "active",
      "isInsular": false,
      "isLandlocked": false,
      "subregion": "Western Asia",
      "populationTier": "medium",
      "areaTier": "large",
      "flagComplexity": "moderate"
    },
    {
      "iso2": "SN",
      "name": "Senegal",
      "capital": "Dakar",
      "continent": "Africa",
      "lat": 14.7167,
      "lng": -17.4677,
      "flag": "sn",
      "status": "active",
      "isInsular": false,
      "isLandlocked": false,
      "subregion": "Western Africa",
      "populationTier": "medium",
      "areaTier": "small",
      "flagComplexity": "simple"
    },
    {
      "iso2": "RS",
      "name": "Serbia",
      "capital": "Belgrade",
      "continent": "Europe",
      "lat": 44.7866,
      "lng": 20.4489,
      "flag": "rs",
      "status": "active",
      "isInsular": false,
      "isLandlocked": true,
      "subregion": "Southern Europe",
      "populationTier": "small",
      "areaTier": "small",
      "flagComplexity": "moderate"
    },
    {
      "iso2": "SC",
      "name": "Seychelles",
      "capital": "Victoria",
      "continent": "Africa",
      "lat": -4.6191,
      "lng": 55.4513,
      "flag": "sc",
      "status": "active",
      "isInsular": true,
      "isLandlocked": false,
      "subregion": "Eastern Africa",
      "populationTier": "micro",
      "areaTier": "micro",
      "flagComplexity": "moderate"
    },
    {
      "iso2": "SL",
      "name": "Sierra Leone",
      "capital": "Freetown",
      "continent": "Africa",
      "lat": 8.4657,
      "lng": -13.2317,
      "flag": "sl",
      "status": "active",
      "isInsular": false,
      "isLandlocked": false,
      "subregion": "Western Africa",
      "populationTier": "small",
      "areaTier": "small",
      "flagComplexity": "simple"
    },
    {
      "iso2": "SG",
      "name": "Singapore",
      "capital": "Singapore",
      "continent": "Asia",
      "lat": 1.3521,
      "lng": 103.8198,
      "flag": "sg",
      "status": "active",
      "isInsular": true,
      "isLandlocked": false,
      "subregion": "Southeast Asia",
      "populationTier": "small",
      "areaTier": "micro",
      "flagComplexity": "moderate"
    },
    {
      "iso2": "SK",
      "name": "Slovakia",
      "capital": "Bratislava",
      "continent": "Europe",
      "lat": 48.1486,
      "lng": 17.1077,
      "flag": "sk",
      "status": "active",
      "isInsular": false,
      "isLandlocked": true,
      "subregion": "Eastern Europe",
      "populationTier": "small",
      "areaTier": "small",
      "flagComplexity": "moderate"
    },
    {
      "iso2": "SI",
      "name": "Slovenia",
      "capital": "Ljubljana",
      "continent": "Europe",
      "lat": 46.0569,
      "lng": 14.5058,
      "flag": "si",
      "status": "active",
      "isInsular": false,
      "isLandlocked": false,
      "subregion": "Southern Europe",
      "populationTier": "small",
      "areaTier": "micro",
      "flagComplexity": "moderate"
    },
    {
      "iso2": "SB",
      "name": "Solomon Islands",
      "capital": "Honiara",
      "continent": "Oceania",
      "lat": -9.4295,
      "lng": 159.9556,
      "flag": "sb",
      "status": "active",
      "isInsular": true,
      "isLandlocked": false,
      "subregion": "Melanesia",
      "populationTier": "small",
      "areaTier": "micro",
      "flagComplexity": "complex"
    },
    {
      "iso2": "SO",
      "name": "Somalia",
      "capital": "Mogadishu",
      "continent": "Africa",
      "lat": 2.0469,
      "lng": 45.3182,
      "flag": "so",
      "status": "active",
      "isInsular": false,
      "isLandlocked": false,
      "subregion": "Eastern Africa",
      "populationTier": "small",
      "areaTier": "medium",
      "flagComplexity": "simple"
    },
    {
      "iso2": "ZA",
      "name": "South Africa",
      "capital": "Pretoria",
      "continent": "Africa",
      "lat": -25.7479,
      "lng": 28.2293,
      "flag": "za",
      "status": "active",
      "isInsular": false,
      "isLandlocked": false,
      "subregion": "Southern Africa",
      "populationTier": "large",
      "areaTier": "large",
      "flagComplexity": "complex"
    },
    {
      "iso2": "KR",
      "name": "South Korea",
      "capital": "Seoul",
      "continent": "Asia",
      "lat": 37.5665,
      "lng": 126.978,
      "flag": "kr",
      "status": "active",
      "isInsular": false,
      "isLandlocked": false,
      "subregion": "East Asia",
      "populationTier": "large",
      "areaTier": "small",
      "flagComplexity": "moderate"
    },
    {
      "iso2": "SS",
      "name": "South Sudan",
      "capital": "Juba",
      "continent": "Africa",
      "lat": 4.8594,
      "lng": 31.5713,
      "flag": "ss",
      "status": "active",
      "isInsular": false,
      "isLandlocked": true,
      "subregion": "Eastern Africa",
      "populationTier": "small",
      "areaTier": "large",
      "flagComplexity": "moderate"
    },
    {
      "iso2": "ES",
      "name": "Spain",
      "capital": "Madrid",
      "continent": "Europe",
      "lat": 40.4168,
      "lng": -3.7038,
      "flag": "es",
      "status": "active",
      "isInsular": false,
      "isLandlocked": false,
      "subregion": "Southern Europe",
      "populationTier": "large",
      "areaTier": "medium",
      "flagComplexity": "moderate"
    },
    {
      "iso2": "LK",
      "name": "Sri Lanka",
      "capital": "Sri Jayawardenepura Kotte",
      "continent": "Asia",
      "lat": 6.9271,
      "lng": 79.8612,
      "flag": "lk",
      "status": "active",
      "isInsular": true,
      "isLandlocked": false,
      "subregion": "South Asia",
      "populationTier": "medium",
      "areaTier": "small",
      "flagComplexity": "moderate"
    },
    {
      "iso2": "SD",
      "name": "Sudan",
      "capital": "Khartoum",
      "continent": "Africa",
      "lat": 15.5007,
      "lng": 32.5599,
      "flag": "sd",
      "status": "active",
      "isInsular": false,
      "isLandlocked": false,
      "subregion": "Northern Africa",
      "populationTier": "medium",
      "areaTier": "large",
      "flagComplexity": "moderate"
    },
    {
      "iso2": "SR",
      "name": "Suriname",
      "capital": "Paramaribo",
      "continent": "South America",
      "lat": 5.852,
      "lng": -55.2038,
      "flag": "sr",
      "status": "active",
      "isInsular": false,
      "isLandlocked": false,
      "subregion": "South America",
      "populationTier": "micro",
      "areaTier": "medium",
      "flagComplexity": "moderate"
    },
    {
      "iso2": "SE",
      "name": "Sweden",
      "capital": "Stockholm",
      "continent": "Europe",
      "lat": 59.3293,
      "lng": 18.0686,
      "flag": "se",
      "status": "active",
      "isInsular": false,
      "isLandlocked": false,
      "subregion": "Northern Europe",
      "populationTier": "small",
      "areaTier": "medium",
      "flagComplexity": "simple"
    },
    {
      "iso2": "CH",
      "name": "Switzerland",
      "capital": "Bern",
      "continent": "Europe",
      "lat": 46.948,
      "lng": 7.4474,
      "flag": "ch",
      "status": "active",
      "isInsular": false,
      "isLandlocked": true,
      "subregion": "Western Europe",
      "populationTier": "small",
      "areaTier": "small",
      "flagComplexity": "simple"
    },
    {
      "iso2": "SY",
      "name": "Syria",
      "capital": "Damascus",
      "continent": "Asia",
      "lat": 33.5138,
      "lng": 36.2765,
      "flag": "sy",
      "status": "active",
      "isInsular": false,
      "isLandlocked": false,
      "subregion": "Western Asia",
      "populationTier": "medium",
      "areaTier": "small",
      "flagComplexity": "moderate"
    },
    {
      "iso2": "TW",
      "name": "Taiwan",
      "capital": "Taipei",
      "continent": "Asia",
      "lat": 25.033,
      "lng": 121.5654,
      "flag": "tw",
      "status": "active",
      "isInsular": true,
      "isLandlocked": false,
      "subregion": "East Asia",
      "populationTier": "medium",
      "areaTier": "small",
      "flagComplexity": "moderate"
    },
    {
      "iso2": "TJ",
      "name": "Tajikistan",
      "capital": "Dushanbe",
      "continent": "Asia",
      "lat": 38.5598,
      "lng": 68.7738,
      "flag": "tj",
      "status": "active",
      "isInsular": false,
      "isLandlocked": true,
      "subregion": "Central Asia",
      "populationTier": "small",
      "areaTier": "small",
      "flagComplexity": "moderate"
    },
    {
      "iso2": "TZ",
      "name": "Tanzania",
      "capital": "Dodoma",
      "continent": "Africa",
      "lat": -6.163,
      "lng": 35.7516,
      "flag": "tz",
      "status": "active",
      "isInsular": false,
      "isLandlocked": false,
      "subregion": "Eastern Africa",
      "populationTier": "large",
      "areaTier": "large",
      "flagComplexity": "moderate"
    },
    {
      "iso2": "TH",
      "name": "Thailand",
      "capital": "Bangkok",
      "continent": "Asia",
      "lat": 13.7563,
      "lng": 100.5018,
      "flag": "th",
      "status": "active",
      "isInsular": false,
      "isLandlocked": false,
      "subregion": "Southeast Asia",
      "populationTier": "large",
      "areaTier": "medium",
      "flagComplexity": "moderate"
    },
    {
      "iso2": "TG",
      "name": "Togo",
      "capital": "Lomé",
      "continent": "Africa",
      "lat": 6.1375,
      "lng": 1.2123,
      "flag": "tg",
      "status": "active",
      "isInsular": false,
      "isLandlocked": false,
      "subregion": "Western Africa",
      "populationTier": "small",
      "areaTier": "micro",
      "flagComplexity": "simple"
    },
    {
      "iso2": "TO",
      "name": "Tonga",
      "capital": "Nukualofa",
      "continent": "Oceania",
      "lat": -21.2114,
      "lng": -175.1998,
      "flag": "to",
      "status": "active",
      "isInsular": true,
      "isLandlocked": false,
      "subregion": "Polynesia",
      "populationTier": "micro",
      "areaTier": "micro",
      "flagComplexity": "simple"
    },
    {
      "iso2": "TT",
      "name": "Trinidad and Tobago",
      "capital": "Port of Spain",
      "continent": "North America",
      "lat": 10.6596,
      "lng": -61.5086,
      "flag": "tt",
      "status": "active",
      "isInsular": true,
      "isLandlocked": false,
      "subregion": "Caribbean",
      "populationTier": "small",
      "areaTier": "micro",
      "flagComplexity": "moderate"
    },
    {
      "iso2": "TN",
      "name": "Tunisia",
      "capital": "Tunis",
      "continent": "Africa",
      "lat": 36.8065,
      "lng": 10.1815,
      "flag": "tn",
      "status": "active",
      "isInsular": false,
      "isLandlocked": false,
      "subregion": "Northern Africa",
      "populationTier": "small",
      "areaTier": "small",
      "flagComplexity": "moderate"
    },
    {
      "iso2": "TR",
      "name": "Turkey",
      "capital": "Ankara",
      "continent": "Asia",
      "lat": 39.9334,
      "lng": 32.8597,
      "flag": "tr",
      "status": "active",
      "isInsular": false,
      "isLandlocked": false,
      "subregion": "Western Asia",
      "populationTier": "large",
      "areaTier": "medium",
      "flagComplexity": "simple"
    },
    {
      "iso2": "TM",
      "name": "Turkmenistan",
      "capital": "Ashgabat",
      "continent": "Asia",
      "lat": 37.9601,
      "lng": 58.3261,
      "flag": "tm",
      "status": "active",
      "isInsular": false,
      "isLandlocked": true,
      "subregion": "Central Asia",
      "populationTier": "small",
      "areaTier": "medium",
      "flagComplexity": "complex"
    },
    {
      "iso2": "TV",
      "name": "Tuvalu",
      "capital": "Funafuti",
      "continent": "Oceania",
      "lat": -8.5167,
      "lng": 179.2167,
      "flag": "tv",
      "status": "active",
      "isInsular": true,
      "isLandlocked": false,
      "subregion": "Polynesia",
      "populationTier": "micro",
      "areaTier": "micro",
      "flagComplexity": "moderate"
    },
    {
      "iso2": "UG",
      "name": "Uganda",
      "capital": "Kampala",
      "continent": "Africa",
      "lat": 0.3476,
      "lng": 32.5825,
      "flag": "ug",
      "status": "active",
      "isInsular": false,
      "isLandlocked": true,
      "subregion": "Eastern Africa",
      "populationTier": "large",
      "areaTier": "medium",
      "flagComplexity": "moderate"
    },
    {
      "iso2": "UA",
      "name": "Ukraine",
      "capital": "Kyiv",
      "continent": "Europe",
      "lat": 50.4501,
      "lng": 30.5234,
      "flag": "ua",
      "status": "active",
      "isInsular": false,
      "isLandlocked": false,
      "subregion": "Eastern Europe",
      "populationTier": "large",
      "areaTier": "medium",
      "flagComplexity": "moderate"
    },
    {
      "iso2": "AE",
      "name": "United Arab Emirates",
      "capital": "Abu Dhabi",
      "continent": "Asia",
      "lat": 24.4539,
      "lng": 54.3773,
      "flag": "ae",
      "status": "active",
      "isInsular": false,
      "isLandlocked": false,
      "subregion": "Western Asia",
      "populationTier": "small",
      "areaTier": "small",
      "flagComplexity": "simple"
    },
    {
      "iso2": "GB",
      "name": "United Kingdom",
      "capital": "London",
      "continent": "Europe",
      "lat": 51.5074,
      "lng": -0.1278,
      "flag": "gb",
      "status": "active",
      "isInsular": true,
      "isLandlocked": false,
      "subregion": "Northern Europe",
      "populationTier": "large",
      "areaTier": "medium",
      "flagComplexity": "complex"
    },
    {
      "iso2": "US",
      "name": "United States",
      "capital": "Washington, D.C.",
      "continent": "North America",
      "lat": 38.9072,
      "lng": -77.0369,
      "flag": "us",
      "status": "active",
      "isInsular": false,
      "isLandlocked": false,
      "subregion": "Northern America",
      "populationTier": "large",
      "areaTier": "xlarge",
      "flagComplexity": "complex"
    },
    {
      "iso2": "UY",
      "name": "Uruguay",
      "capital": "Montevideo",
      "continent": "South America",
      "lat": -34.9011,
      "lng": -56.1645,
      "flag": "uy",
      "status": "active",
      "isInsular": false,
      "isLandlocked": false,
      "subregion": "South America",
      "populationTier": "small",
      "areaTier": "small",
      "flagComplexity": "moderate"
    },
    {
      "iso2": "UZ",
      "name": "Uzbekistan",
      "capital": "Tashkent",
      "continent": "Asia",
      "lat": 41.2995,
      "lng": 69.2401,
      "flag": "uz",
      "status": "active",
      "isInsular": false,
      "isLandlocked": true,
      "subregion": "Central Asia",
      "populationTier": "medium",
      "areaTier": "medium",
      "flagComplexity": "moderate"
    },
    {
      "iso2": "VU",
      "name": "Vanuatu",
      "capital": "Port Vila",
      "continent": "Oceania",
      "lat": -17.7333,
      "lng": 168.3167,
      "flag": "vu",
      "status": "active",
      "isInsular": true,
      "isLandlocked": false,
      "subregion": "Melanesia",
      "populationTier": "micro",
      "areaTier": "micro",
      "flagComplexity": "moderate"
    },
    {
      "iso2": "VA",
      "name": "Vatican City",
      "capital": "Vatican City",
      "continent": "Europe",
      "lat": 41.9029,
      "lng": 12.4534,
      "flag": "va",
      "status": "active",
      "isInsular": false,
      "isLandlocked": true,
      "subregion": "Southern Europe",
      "populationTier": "micro",
      "areaTier": "micro",
      "flagComplexity": "moderate"
    },
    {
      "iso2": "VE",
      "name": "Venezuela",
      "capital": "Caracas",
      "continent": "South America",
      "lat": 10.4806,
      "lng": -66.9036,
      "flag": "ve",
      "status": "active",
      "isInsular": false,
      "isLandlocked": false,
      "subregion": "South America",
      "populationTier": "medium",
      "areaTier": "large",
      "flagComplexity": "complex"
    },
    {
      "iso2": "VN",
      "name": "Vietnam",
      "capital": "Hanoi",
      "continent": "Asia",
      "lat": 21.0278,
      "lng": 105.8342,
      "flag": "vn",
      "status": "active",
      "isInsular": false,
      "isLandlocked": false,
      "subregion": "Southeast Asia",
      "populationTier": "large",
      "areaTier": "medium",
      "flagComplexity": "simple"
    },
    {
      "iso2": "YE",
      "name": "Yemen",
      "capital": "Sanaa",
      "continent": "Asia",
      "lat": 15.3694,
      "lng": 44.191,
      "flag": "ye",
      "status": "active",
      "isInsular": false,
      "isLandlocked": false,
      "subregion": "Western Asia",
      "populationTier": "medium",
      "areaTier": "medium",
      "flagComplexity": "simple"
    },
    {
      "iso2": "ZM",
      "name": "Zambia",
      "capital": "Lusaka",
      "continent": "Africa",
      "lat": -15.3875,
      "lng": 28.3228,
      "flag": "zm",
      "status": "active",
      "isInsular": false,
      "isLandlocked": true,
      "subregion": "Eastern Africa",
      "populationTier": "medium",
      "areaTier": "large",
      "flagComplexity": "moderate"
    },
    {
      "iso2": "ZW",
      "name": "Zimbabwe",
      "capital": "Harare",
      "continent": "Africa",
      "lat": -17.8252,
      "lng": 31.0335,
      "flag": "zw",
      "status": "active",
      "isInsular": false,
      "isLandlocked": true,
      "subregion": "Eastern Africa",
      "populationTier": "medium",
      "areaTier": "medium",
      "flagComplexity": "moderate"
    }
  ]
}
